[{"center":{"lon":5.599573,"lat":50.621845},"adr":[{"lon":5.2734472,"lat":50.609673,"street_hint":"Chapon-Seraing"},{"lon":5.599573,"lat":50.621845,"street_hint":"Grivegnee"},{"lon":5.2638924294785,"lat":51.1220584,"street_hint":"Leopoldsburg"},{"lon":5.6655488,"lat":50.6068155,"street_hint":"Romsée"},{"lon":5.8695304694514,"lat":50.75322225,"street_hint":"Teuven"},{"lon":4.8597257,"lat":51.1438611,"street_hint":"Olen"},{"lon":5.6333621,"lat":50.7677078,"street_hint":"Wonck"},{"lon":5.4811796,"lat":50.5353385,"street_hint":"Rotheux-Rimière"},{"lon":5.2254442,"lat":50.5951052,"street_hint":"Warnant-Dreye"},{"lon":5.2944311,"lat":50.7366903,"street_hint":"Opheers"},{"lon":5.1781361499823,"lat":50.7614659,"street_hint":"Muizen"},{"lon":5.6161660037867,"lat":51.0182495,"street_hint":"Niel-Bij-As"},{"lon":5.5340486411054,"lat":50.8523326,"street_hint":"Martenslinde"},{"lon":5.3125869,"lat":50.3533462,"street_hint":"Maffe"},{"lon":5.5234944,"lat":50.6879619,"street_hint":"Lantin"},{"lon":5.5289463613944,"lat":51.1303479,"street_hint":"Ellikom"},{"lon":5.80836,"lat":50.4069504,"street_hint":"Stoumont"},{"lon":5.1713525249725,"lat":50.1502721,"street_hint":"Eprave"},{"lon":5.412251,"lat":50.6175774,"street_hint":"Noirfontaine"},{"lon":5.7432715,"lat":50.6821815,"street_hint":"Mortier"}]},{"center":{"lon":4.561356496071,"lat":50.53007005},"adr":[{"lon":4.1558267,"lat":50.3067709,"street_hint":"Solre-Sur-Sambre"},{"lon":5.0133577,"lat":50.4641615,"street_hint":"Thon"},{"lon":4.7248073999999995,"lat":50.5810646,"street_hint":"Sauvenière"},{"lon":4.6047327,"lat":51.1625761,"street_hint":"Emblem"},{"lon":4.4301757,"lat":50.4653846,"street_hint":"Gosselies"},{"lon":4.584081,"lat":50.4065228,"street_hint":"Aiseau-Presles"},{"lon":4.4360525,"lat":50.0577541,"street_hint":"Dailly"},{"lon":4.218073,"lat":50.416547,"street_hint":"Leval-Trahegnies"},{"lon":4.575800525,"lat":50.97828585,"street_hint":"Boortmeerbeek"},{"lon":4.7909700280289,"lat":50.5005948,"street_hint":"Rhisnes"},{"lon":4.9584822,"lat":50.223335,"street_hint":"Furfooz"},{"lon":5.0744138,"lat":50.4508568,"street_hint":"Haltinne"},{"lon":4.6202848419069,"lat":50.57660545,"street_hint":"Saint-Géry"},{"lon":3.9868957,"lat":50.4254505,"street_hint":"Spiennes"},{"lon":4.1644816,"lat":50.3234035,"street_hint":"Merbes-Le-Château"},{"lon":5.0603857,"lat":50.2496153,"street_hint":"Conneux"},{"lon":4.3904888684211,"lat":50.89779605,"street_hint":"Neder-Over-Heembeek"},{"lon":4.7631073,"lat":50.6376269,"street_hint":"Orbais"},{"lon":4.5151961,"lat":50.390213,"street_hint":"Bouffioulx"},{"lon":4.4432967,"lat":50.8292429,"street_hint":"Woluwe-Saint-Pierre"},{"lon":4.7411668,"lat":50.4027187,"street_hint":"Sart-Saint-Laurent"},{"lon":4.5565660886042,"lat":50.83488335,"street_hint":"Vossem"},{"lon":4.9111431209758,"lat":50.84379005,"street_hint":"Vissenaken"},{"lon":4.6396988,"lat":50.0237221,"street_hint":"Oignies-En-Thiérache"},{"lon":4.4206168,"lat":50.0247898,"street_hint":"Presgaux"},{"lon":4.9513009,"lat":50.8725203,"street_hint":"Glabbeek"},{"lon":4.758878,"lat":50.4348064,"street_hint":"Floreffe"},{"lon":4.561356496071,"lat":50.53007005,"street_hint":"Brye"},{"lon":4.3548145440335,"lat":50.6940942,"street_hint":"Braine-L\u0027alleud"},{"lon":5.0184357,"lat":50.6875594,"street_hint":"Petit-Hallet"},{"lon":4.1475857,"lat":50.4517378,"street_hint":"Trivières"}]},{"center":{"lon":3.6418029,"lat":50.9569377},"adr":[{"lon":3.8249605,"lat":50.815045,"street_hint":"Lierde"},{"lon":3.8878195,"lat":50.637673,"street_hint":"Gibecq"},{"lon":3.6418029,"lat":50.9569377,"street_hint":"Eke"},{"lon":3.6819262999999998,"lat":50.4084818,"street_hint":"Quiévrain"},{"lon":4.5955157359888,"lat":51.257095,"street_hint":"Schilde"},{"lon":2.9207800886428,"lat":51.06253345,"street_hint":"Vladslo"},{"lon":3.7131906,"lat":50.9698809,"street_hint":"Schelderode"},{"lon":3.9158325,"lat":50.8726761,"street_hint":"Woubrechtegem"},{"lon":3.1422717715338,"lat":51.03033065,"street_hint":"Lichtervelde"},{"lon":3.7034612746567,"lat":51.09349535,"street_hint":"Wondelgem"},{"lon":3.5977459,"lat":50.7061803,"street_hint":"Saint-Sauveur"},{"lon":2.8993179258716,"lat":51.10066415,"street_hint":"Leke"},{"lon":3.6928827,"lat":50.9579283,"street_hint":"Melsen"},{"lon":3.6346312134542,"lat":51.19424,"street_hint":"Lembeke"},{"lon":3.6789952,"lat":51.2311917,"street_hint":"Bassevelde"},{"lon":2.7409610507934,"lat":50.8003371,"street_hint":"Westouter"},{"lon":3.8521321366835,"lat":50.91972825,"street_hint":"Sint-Lievens-Houtem"},{"lon":3.8051335,"lat":50.3729779,"street_hint":"Blaugies"},{"lon":3.4036062,"lat":50.9057236,"street_hint":"Sint-Eloois-Vijve"},{"lon":2.6262588,"lat":50.9150531,"street_hint":"Roesbrugge-Haringe"},{"lon":3.3039251,"lat":50.5557678,"street_hint":"Rumes"},{"lon":2.9186353800579,"lat":51.1174383,"street_hint":"Zande"},{"lon":2.7205508961772,"lat":50.9103823,"street_hint":"Westvleteren"},{"lon":4.194377,"lat":51.2191283,"street_hint":"Vrasene"},{"lon":3.3668477,"lat":50.5822217,"street_hint":"Ere"}]},{"center":{"lon":5.5704642,"lat":49.5581925},"adr":[{"lon":5.811919,"lat":49.6827625,"street_hint":"Arlon"},{"lon":5.4795124,"lat":49.5262083,"street_hint":"Lamorteau"},{"lon":5.5704642,"lat":49.5581925,"street_hint":"Latour"},{"lon":5.0035785,"lat":49.8115586,"street_hint":"Poupehan"}]}]